{
"type": "FeatureCollection",
"name": "objects",
"crs": { "type": "name", "properties": { "name": "urn:ogc:def:crs:OGC:1.3:CRS84" } },
"features": [
{ "type": "Feature", "properties": { "id": 1, "nazwa": "Fort III", "nazwa_eng": "Fort III" }, "geometry": { "type": "Point", "coordinates": [ 16.997462692706925, 52.399932155561459 ] } },
{ "type": "Feature", "properties": { "id": 2, "nazwa": "Przystanek początkowy", "nazwa_eng":"Starting Stop" }, "geometry": { "type": "Point", "coordinates": [ 16.99540436685778, 52.400409937843854 ] } },
{ "type": "Feature", "properties": { "id": 3, "nazwa": "Przystanek Flaming", "nazwa_eng":"Flaming Stop" }, "geometry": { "type": "Point", "coordinates": [ 16.99902334795021, 52.39704962058628 ] } },
{ "type": "Feature", "properties": { "id": 4, "nazwa": "Przystanek Słoń", "nazwa_eng":"Słoń Stop" }, "geometry": { "type": "Point", "coordinates": [ 17.011389722474917, 52.400259503490183 ] } },
{ "type": "Feature", "properties": { "id": 5, "nazwa": "Przystanek Pelikan", "nazwa_eng":"Pelikan Stop" }, "geometry": { "type": "Point", "coordinates": [ 17.001471461813374, 52.399846011369711 ] } },
{ "type": "Feature", "properties": { "id": 6, "nazwa": "Przystanek Ryś", "nazwa_eng":"Ryś Stop" }, "geometry": { "type": "Point", "coordinates": [ 17.000271687137193, 52.402169707581372 ] } },
{ "type": "Feature", "properties": { "id": 7, "nazwa": "Dyrekcja Zoo", "nazwa_eng":"Zoo Menagment" }, "geometry": { "type": "Point", "coordinates": [ 17.015821118455072, 52.399578212781584 ] } },
{ "type": "Feature", "properties": { "id": 8, "nazwa": "Kolejka Turystyczna", "nazwa_eng":"Tourist Train", "typ":"kolejka"  }, "geometry": { "type": "Point", "coordinates": [ 16.99527436685778, 52.400459937843854] } }
]
}
